{"type":"FeatureCollection","features":[{"type":"Feature","properties":{"name":"д. Переспа","comment":"Плотность загрязнения почв радионуклидами цезия-137: 37 - 185 кБк/м2","district":"Дрогичин","region":"Брест","status":"Зона проживания с периодическим радиационным контролем"},"geometry":{"type":"Point","coordinates":[25.114811,52.318107]}},{"type":"Feature","properties":{"name":"д. Великий Лес","comment":"Плотность загрязнения почв радионуклидами цезия-137: 37 - 185 кБк/м2","district":"Дрогичин","region":"Брест","status":"Зона проживания с периодическим радиационным контролем"},"geometry":{"type":"Point","coordinates":[25.053905,52.035325]}},{"type":"Feature","properties":{"name":"Лунинец","comment":"Плотность загрязнения почв радионуклидами цезия-137: 37 - 185 кБк/м2","district":"Лунинец","region":"Брест","status":"Зона проживания с периодическим радиационным контролем"},"geometry":{"type":"Point","coordinates":[26.80094,52.245833]}},{"type":"Feature","properties":{"name":"Микашевичи","comment":"Плотность загрязнения почв радионуклидами цезия-137: 37 - 185 кБк/м2","district":"Лунинец","region":"Брест","status":"Зона проживания с периодическим радиационным контролем"},"geometry":{"type":"Point","coordinates":[27.474326,52.222856]}},{"type":"Feature","properties":{"name":"д. Бродница","comment":"Плотность загрязнения почв радионуклидами цезия-137: 37 - 185 кБк/м2","district":"Лунинец","region":"Брест","status":"Зона проживания с периодическим радиационным контролем"},"geometry":{"type":"Point","coordinates":[26.962879,52.297084]}},{"type":"Feature","properties":{"name":"аг-док Вулька-2","comment":"Плотность загрязнения почв радионуклидами цезия-137: 37 - 185 кБк/м2","district":"Лунинец","region":"Брест","status":"Зона проживания с периодическим радиационным контролем"},"geometry":{"type":"Point","coordinates":[26.987493,52.35041]}},{"type":"Feature","properties":{"name":"д. Галый Бор","comment":"Плотность загрязнения почв радионуклидами цезия-137: 37 - 185 кБк/м2","district":"Лунинец","region":"Брест","status":"Зона проживания с периодическим радиационным контролем"},"geometry":{"type":"Point","coordinates":[26.956034,52.382612]}},{"type":"Feature","properties":{"name":"д. Добрая Воля","comment":"Плотность загрязнения почв радионуклидами цезия-137: 37 - 185 кБк/м2","district":"Лунинец","region":"Брест","status":"Зона проживания с периодическим радиационным контролем"},"geometry":{"type":"Point","coordinates":[26.913553,52.350933]}},{"type":"Feature","properties":{"name":"д. Застенок","comment":"Плотность загрязнения почв радионуклидами цезия-137: 37 - 185 кБк/м2","district":"Лунинец","region":"Брест","status":"Зона проживания с периодическим радиационным контролем"},"geometry":{"type":"Point","coordinates":[27.042793,52.355487]}},{"type":"Feature","properties":{"name":"аг-док Красная Воля","comment":"Плотность загрязнения почв радионуклидами цезия-137: 37 - 185 кБк/м2","district":"Лунинец","region":"Брест","status":"Зона проживания с периодическим радиационным контролем"},"geometry":{"type":"Point","coordinates":[27.061335,52.375487]}},{"type":"Feature","properties":{"name":"д. Бабы","comment":"Плотность загрязнения почв радионуклидами цезия-137: 37 - 185 кБк/м2","district":"Лунинец","region":"Брест","status":"Зона проживания с периодическим радиационным контролем"},"geometry":{"type":"Point","coordinates":[27.044186,52.182277]}},{"type":"Feature","properties":{"name":"д. Дребск","comment":"Плотность загрязнения почв радионуклидами цезия-137: 37 - 185 кБк/м2","district":"Лунинец","region":"Брест","status":"Зона проживания с периодическим радиационным контролем"},"geometry":{"type":"Point","coordinates":[27.019204,52.230237]}},{"type":"Feature","properties":{"name":"аг-докКожан-Городок","comment":"Плотность загрязнения почв радионуклидами цезия-137: 37 - 185 кБк/м2","district":"Лунинец","region":"Брест","status":"Зона проживания с периодическим радиационным контролем"},"geometry":{"type":"Point","coordinates":[27.010283,52.205711]}},{"type":"Feature","properties":{"name":"д. Борки","comment":"Плотность загрязнения почв радионуклидами цезия-137: 37 - 185 кБк/м2","district":"Лунинец","region":"Брест","status":"Зона проживания с периодическим радиационным контролем"},"geometry":{"type":"Point","coordinates":[27.034385,52.301077]}},{"type":"Feature","properties":{"name":"д. Витчин","comment":"Плотность загрязнения почв радионуклидами цезия-137: 37 - 185 кБк/м2","district":"Лунинец","region":"Брест","status":"Зона проживания с периодическим радиационным контролем"},"geometry":{"type":"Point","coordinates":[26.93611,52.270077]}},{"type":"Feature","properties":{"name":"д. Лодино","comment":"Плотность загрязнения почв радионуклидами цезия-137: 37 - 185 кБк/м2","district":"Лунинец","region":"Брест","status":"Зона проживания с периодическим радиационным контролем"},"geometry":{"type":"Point","coordinates":[27.070174,52.314133]}},{"type":"Feature","properties":{"name":"д. Любожердье","comment":"Плотность загрязнения почв радионуклидами цезия-137: 37 - 185 кБк/м2","district":"Лунинец","region":"Брест","status":"Зона проживания с периодическим радиационным контролем"},"geometry":{"type":"Point","coordinates":[26.860948,52.232625]}},{"type":"Feature","properties":{"name":"д. Озерница","comment":"Плотность загрязнения почв радионуклидами цезия-137: 37 - 185 кБк/м2","district":"Лунинец","region":"Брест","status":"Зона проживания с периодическим радиационным контролем"},"geometry":{"type":"Point","coordinates":[27.01641,52.284685]}},{"type":"Feature","properties":{"name":"д. Поле","comment":"Плотность загрязнения почв радионуклидами цезия-137: 37 - 185 кБк/м2","district":"Лунинец","region":"Брест","status":"Зона проживания с периодическим радиационным контролем"},"geometry":{"type":"Point","coordinates":[26.973542,52.281991]}},{"type":"Feature","properties":{"name":"д. Ракитно","comment":"Плотность загрязнения почв радионуклидами цезия-137: 37 - 185 кБк/м2","district":"Лунинец","region":"Брест","status":"Зона проживания с периодическим радиационным контролем"},"geometry":{"type":"Point","coordinates":[26.929741,52.222161]}},{"type":"Feature","properties":{"name":"д. Сосновка","comment":"Плотность загрязнения почв радионуклидами цезия-137: 37 - 185 кБк/м2","district":"Лунинец","region":"Брест","status":"Зона проживания с периодическим радиационным контролем"},"geometry":{"type":"Point","coordinates":[26.883325,52.26488]}},{"type":"Feature","properties":{"name":"д. Средиборье","comment":"Плотность загрязнения почв радионуклидами цезия-137: 37 - 185 кБк/м2","district":"Лунинец","region":"Брест","status":"Зона проживания с периодическим радиационным контролем"},"geometry":{"type":"Point","coordinates":[27.034026,52.319621]}},{"type":"Feature","properties":{"name":"д. Яжевки","comment":"Плотность загрязнения почв радионуклидами цезия-137: 37 - 185 кБк/м2","district":"Лунинец","region":"Брест","status":"Зона проживания с периодическим радиационным контролем"},"geometry":{"type":"Point","coordinates":[26.895883,52.244322]}},{"type":"Feature","properties":{"name":"д. Язвинки","comment":"Плотность загрязнения почв радионуклидами цезия-137: 37 - 185 кБк/м2","district":"Лунинец","region":"Брест","status":"Зона проживания с периодическим радиационным контролем"},"geometry":{"type":"Point","coordinates":[26.902548,52.250459]}},{"type":"Feature","properties":{"name":"д. Боровцы","comment":"Плотность загрязнения почв радионуклидами цезия-137: 37 - 185 кБк/м2","district":"Лунинец","region":"Брест","status":"Зона проживания с периодическим радиационным контролем"},"geometry":{"type":"Point","coordinates":[26.885894,52.305846]}},{"type":"Feature","properties":{"name":"аг-док Дятловичи","comment":"Плотность загрязнения почв радионуклидами цезия-137: 37 - 185 кБк/м2","district":"Лунинец","region":"Брест","status":"Зона проживания с периодическим радиационным контролем"},"geometry":{"type":"Point","coordinates":[26.833558,52.335472]}},{"type":"Feature","properties":{"name":"д. Куповцы","comment":"Плотность загрязнения почв радионуклидами цезия-137: 37 - 185 кБк/м2","district":"Лунинец","region":"Брест","status":"Зона проживания с периодическим радиационным контролем"},"geometry":{"type":"Point","coordinates":[26.866715,52.319357]}},{"type":"Feature","properties":{"name":"д. Барсуково","comment":"Плотность загрязнения почв радионуклидами цезия-137: 37 - 185 кБк/м2","district":"Лунинец","region":"Брест","status":"Зона проживания с периодическим радиационным контролем"},"geometry":{"type":"Point","coordinates":[27.111065,52.353248]}},{"type":"Feature","properties":{"name":"д. Лахва","comment":"Плотность загрязнения почв радионуклидами цезия-137: 37 - 185 кБк/м2","district":"Лунинец","region":"Брест","status":"Зона проживания с периодическим радиационным контролем"},"geometry":{"type":"Point","coordinates":[27.106825,52.210507]}},{"type":"Feature","properties":{"name":"д. Лаховка","comment":"Плотность загрязнения почв радионуклидами цезия-137: 37 - 185 кБк/м2","district":"Лунинец","region":"Брест","status":"Зона проживания с периодическим радиационным контролем"},"geometry":{"type":"Point","coordinates":[27.151175,52.190266]}},{"type":"Feature","properties":{"name":"аг-док Любань","comment":"Плотность загрязнения почв радионуклидами цезия-137: 37 - 185 кБк/м2","district":"Лунинец","region":"Брест","status":"Зона проживания с периодическим радиационным контролем"},"geometry":{"type":"Point","coordinates":[27.135383,52.211098]}},{"type":"Feature","properties":{"name":"д. Перуново","comment":"Плотность загрязнения почв радионуклидами цезия-137: 37 - 185 кБк/м2","district":"Лунинец","region":"Брест","status":"Зона проживания с периодическим радиационным контролем"},"geometry":{"type":"Point","coordinates":[27.141231,52.306171]}},{"type":"Feature","properties":{"name":"аг-док Вулька-1","comment":"Плотность загрязнения почв радионуклидами цезия-137: 37 - 185 кБк/м2","district":"Лунинец","region":"Брест","status":"Зона проживания с периодическим радиационным контролем"},"geometry":{"type":"Point","coordinates":[26.702458,52.278239]}},{"type":"Feature","properties":{"name":"д. Мелесница","comment":"Плотность загрязнения почв радионуклидами цезия-137: 37 - 185 кБк/м2","district":"Лунинец","region":"Брест","status":"Зона проживания с периодическим радиационным контролем"},"geometry":{"type":"Point","coordinates":[26.756824,52.286745]}},{"type":"Feature","properties":{"name":"аг-док Редигерово","comment":"Плотность загрязнения почв радионуклидами цезия-137: 37 - 185 кБк/м2","district":"Лунинец","region":"Брест","status":"Зона проживания с периодическим радиационным контролем"},"geometry":{"type":"Point","coordinates":[27.190198,52.292188]}},{"type":"Feature","properties":{"name":"д. Флерово","comment":"Плотность загрязнения почв радионуклидами цезия-137: 37 - 185 кБк/м2","district":"Лунинец","region":"Брест","status":"Зона проживания с периодическим радиационным контролем"},"geometry":{"type":"Point","coordinates":[27.186731,52.311793]}},{"type":"Feature","properties":{"name":"д. Черебасово","comment":"Плотность загрязнения почв радионуклидами цезия-137: 37 - 185 кБк/м2","district":"Лунинец","region":"Брест","status":"Зона проживания с периодическим радиационным контролем"},"geometry":{"type":"Point","coordinates":[27.185132,52.246826]}},{"type":"Feature","properties":{"name":"д. Гряда","comment":"Плотность загрязнения почв радионуклидами цезия-137: 37 - 185 кБк/м2","district":"Лунинец","region":"Брест","status":"Зона проживания с периодическим радиационным контролем"},"geometry":{"type":"Point","coordinates":[27.391708,52.180355]}},{"type":"Feature","properties":{"name":"д. Мокрово","comment":"Плотность загрязнения почв радионуклидами цезия-137: 37 - 185 кБк/м2","district":"Лунинец","region":"Брест","status":"Зона проживания с периодическим радиационным контролем"},"geometry":{"type":"Point","coordinates":[27.242938,52.217361]}},{"type":"Feature","properties":{"name":"д. Намокрово","comment":"Плотность загрязнения почв радионуклидами цезия-137: 37 - 185 кБк/м2","district":"Лунинец","region":"Брест","status":"Зона проживания с периодическим радиационным контролем"},"geometry":{"type":"Point","coordinates":[27.210329,52.184938]}},{"type":"Feature","properties":{"name":"д. Острово","comment":"Плотность загрязнения почв радионуклидами цезия-137: 37 - 185 кБк/м2","district":"Лунинец","region":"Брест","status":"Зона проживания с периодическим радиационным контролем"},"geometry":{"type":"Point","coordinates":[27.231925,52.201318]}},{"type":"Feature","properties":{"name":"аг-док Синкевичи","comment":"Плотность загрязнения почв радионуклидами цезия-137: 37 - 185 кБк/м2","district":"Лунинец","region":"Брест","status":"Зона проживания с периодическим радиационным контролем"},"geometry":{"type":"Point","coordinates":[27.256979,52.21416]}},{"type":"Feature","properties":{"name":"д. Ситница","comment":"Плотность загрязнения почв радионуклидами цезия-137: 37 - 185 кБк/м2","district":"Лунинец","region":"Брест","status":"Зона проживания с периодическим радиационным контролем"},"geometry":{"type":"Point","coordinates":[27.358497,52.195931]}},{"type":"Feature","properties":{"name":"д. Ситницкий Двор","comment":"Плотность загрязнения почв радионуклидами цезия-137: 37 - 185 кБк/м2","district":"Лунинец","region":"Брест","status":"Зона проживания с периодическим радиационным контролем"},"geometry":{"type":"Point","coordinates":[27.315181,52.263502]}},{"type":"Feature","properties":{"name":"д. Луги","comment":"Плотность загрязнения почв радионуклидами цезия-137: 37 - 185 кБк/м2","district":"Лунинец","region":"Брест","status":"Зона проживания с периодическим радиационным контролем"},"geometry":{"type":"Point","coordinates":[27.035571,52.550749]}}]}
